[
  {
    "restaurant_name": "Sweet & Vicious",
    "link": "http://www.sweetandvicious.com/",
    "happy_hour_time": "5:00 PM - 7:00 PM",
    "food_offered": {
      "sliders": "$8",
      "wings": "$10",
      "fries": "$6"
    },
    "address": "5 Spring St, New York, NY 10013",
    "food_type": "American Gastropub",
    "id": 1,
    "latitude": "40.7213232499999975289028952829539775848388671875",
    "longitude": "-73.994280535872206883141188882291316986083984375"
  },
  {
    "restaurant_name": "Tavern 29",
    "link": "http://tavern29.com/",
    "happy_hour_time": "4:00 PM - 6:00 PM",
    "food_offered": {
      "mini burgers": "$5",
      "pretzels": "$4",
      "deviled eggs": "$3 each"
    },
    "address": "47 E 29th St, New York, NY 10016",
    "food_type": "American Comfort Food",
    "id": 2,
    "latitude": "40.74424280000000209156496566720306873321533203125",
    "longitude": "-73.983988100000004806133802048861980438232421875"
  },
  {
    "restaurant_name": "Cask Bar & Kitchen",
    "link": "http://casknyc.com/",
    "happy_hour_time": "3:00 PM - 6:00 PM",
    "food_offered": {
      "beer-battered onion rings": "$9",
      "cheese curds": "$8",
      "pulled pork sliders": "$7"
    },
    "address": "167 E 33rd St, New York, NY 10016",
    "food_type": "Pub Fare",
    "id": 3,
    "latitude": "40.7454263999999994894096744246780872344970703125",
    "longitude": "-73.978974245010846289005712606012821197509765625"
  },
  {
    "restaurant_name": "Employees Only",
    "link": "https://employeesonlynyc.com/",
    "happy_hour_time": "4:00 PM - 6:00 PM",
    "food_offered": {
      "oysters": "$1 each",
      "deviled eggs": "$2 each",
      "other snacks": "$5-8 each"
    },
    "address": "510 Hudson St, New York, NY 10014",
    "food_type": "American Gastropub",
    "id": 4,
    "latitude": "40.73343390000000141526470542885363101959228515625",
    "longitude": "-74.00607669999999416177161037921905517578125"
  },
  {
    "restaurant_name": "Black Tap Craft Burgers & Beer",
    "link": "https://blacktapnyc.com/",
    "happy_hour_time": "4:00 PM - 6:00 PM",
    "food_offered": {
      "burgers": "$12-15",
      "fries": "$6",
      "wings": "$10"
    },
    "address": "525 5th Ave, New York, NY 10017",
    "food_type": "American",
    "id": 5,
    "latitude": "40.747490499999997837221599183976650238037109375",
    "longitude": "-73.9851225000000027876012609340250492095947265625"
  },
  {
    "restaurant_name": "The Happiest Hour",
    "link": "https://www.thehappiesthournyc.com/",
    "happy_hour_time": "4pm to 7pm daily",
    "food_offered": {
      "cocktails": "$5",
      "beers": "$6",
      "wines by the glass": "$7"
    },
    "address": "127 1st Ave, New York, NY 10003",
    "food_type": "American",
    "id": 6,
    "latitude": "40.7274689500000022235326468944549560546875",
    "longitude": "-73.9856957499999907668097876012325286865234375"
  },
  {
    "restaurant_name": "Boqueria Soho",
    "link": "https://www.boquerianyc.com/soho/",
    "happy_hour_time": "4pm to 7pm daily",
    "food_offered": {
      "tapas": "20% off",
      "sangria": "$7",
      "glasses of wine": "$5"
    },
    "address": "190 Prince St, New York, NY 10012",
    "food_type": "Spanish",
    "id": 7,
    "latitude": "40.726508899999998902785591781139373779296875",
    "longitude": "-74.0025825000000025966073735617101192474365234375"
  },
  {
    "restaurant_name": "Morimoto Asia",
    "link": "https://www.morimotoasia.com/new-york-city/",
    "happy_hour_time": "4pm to 7pm daily",
    "food_offered": {
      "sushi rolls": "$10-15",
      "sake": "$6",
      "cocktails": "$7"
    },
    "address": "88 5th Ave, New York, NY 10011",
    "food_type": "Pan-Asian",
    "id": 8,
    "latitude": "40.73632925000000426507540396414697170257568359375",
    "longitude": "-73.9935061249999961319190333597362041473388671875"
  },
  {
    "restaurant_name": "The Modern",
    "link": "https://www.moma.org/restaurant/the-modern/",
    "happy_hour_time": "5pm to 7pm daily",
    "food_offered": {
      "oysters": "$12",
      "cocktails": "$7",
      "wines by the glass": "$8"
    },
    "address": "9 W 53rd St, New York, NY 10019",
    "food_type": "Modern American",
    "id": 9,
    "latitude": "40.761189250000001038642949424684047698974609375",
    "longitude": "-73.977009301552499209719826467335224151611328125"
  },
  {
    "restaurant_name": "The NoMad Bar",
    "link": "https://www.thenomadhotel.com/dining/the-nomad-bar/",
    "happy_hour_time": "4pm to 7pm daily",
    "food_offered": {
      "cocktails": "$12",
      "beers": "$8",
      "wines by the glass": "$10"
    },
    "address": "1170 Broadway, New York, NY 10001",
    "food_type": "American Gastropub",
    "id": 10,
    "latitude": "40.7449246000000044887201511301100254058837890625",
    "longitude": "-73.9885959526997538659998099319636821746826171875"
  },
  {
    "restaurant_name": "The Spotted Pig",
    "link": "https://www.thespottedpig.com/",
    "happy_hour_time": "4pm to 7pm daily",
    "food_offered": {
      "oysters": "$1",
      "burgers": "$15",
      "cocktails": "$7"
    },
    "address": "314 W 11th St, New York, NY 10014",
    "food_type": "Italian Gastropub",
    "id": 11,
    "latitude": "40.7356321500000007063135853968560695648193359375",
    "longitude": "-74.0066761264429118227781145833432674407958984375"
  },
  {
    "restaurant_name": "The Waverly Inn",
    "link": "https://www.thewaverlyinn.com/",
    "happy_hour_time": "4pm to 7pm daily",
    "food_offered": {
      "burgers": "$11",
      "beers": "$6",
      "cocktails": "$7"
    },
    "address": "16 Bank St, New York, NY 10014",
    "food_type": "American Pub Fare",
    "id": 12,
    "latitude": "40.73695570000000287791408482007682323455810546875",
    "longitude": "-74.0022259999999931778802420012652873992919921875"
  },
  {
    "restaurant_name": "The Dutch",
    "link": "https://www.thedutchnyc.com/",
    "happy_hour_time": "4pm to 7pm daily",
    "food_offered": {
      "cocktails": "$10",
      "wine": "$7",
      "bar snacks": "$5"
    },
    "address": "131 E 27th St, New York, NY 10016",
    "food_type": "American Gastropub",
    "id": 13,
    "latitude": "40.7423723499999965724782668985426425933837890625",
    "longitude": "-73.9831874781468599167055799625813961029052734375"
  },
  {
    "restaurant_name": "The Grill Room",
    "link": "https://www.thegrillroomny.com/",
    "happy_hour_time": "5pm to 7pm daily",
    "food_offered": {
      "cocktails": "$12",
      "wine": "$8",
      "bar snacks": "$7"
    },
    "address": "40 E 49th St, New York, NY 10017",
    "food_type": "American Steakhouse",
    "id": 14,
    "latitude": "40.7570641290322583927263622172176837921142578125",
    "longitude": "-73.97586977419354070661938749253749847412109375"
  },
  {
    "restaurant_name": "Casa Dani",
    "link": "https://www.casadaninyc.com/",
    "happy_hour_time": "4pm to 7pm daily",
    "food_offered": {
      "cocktails": "$15",
      "wine": "$10",
      "bar snacks": "$10"
    },
    "address": "124 E 46th St, New York, NY 10017",
    "food_type": "Spanish Tapas",
    "id": 15,
    "latitude": "40.75372583673469506493347580544650554656982421875",
    "longitude": "-73.9737782244898056660531437955796718597412109375"
  },
  {
    "restaurant_name": "Bar Tabac",
    "link": "https://www.bartabacnyc.com/",
    "happy_hour_time": "4pm to 7pm daily",
    "food_offered": {
      "cocktails": "$10",
      "wine": "$7",
      "bar snacks": "$5"
    },
    "address": "45 E 58th St, New York, NY 10022",
    "food_type": "French Bistro",
    "id": 16,
    "latitude": "40.7626546999999987974661053158342838287353515625",
    "longitude": "-73.97087740000000621876097284257411956787109375"
  },
  {
    "restaurant_name": "The Dutch Kills",
    "link": "https://www.thedutchkillsnyc.com/",
    "happy_hour_time": "4pm to 7pm daily",
    "food_offered": {
      "cocktails": "$10",
      "wine": "$7",
      "bar snacks": "$5"
    },
    "address": "275 Lorimer St, Brooklyn, NY 11206",
    "food_type": "American Gastropub",
    "id": 17,
    "latitude": "40.70519195918367216791011742316186428070068359375",
    "longitude": "-73.94805063265306444009183906018733978271484375"
  },
  {
    "restaurant_name": "St Anselm",
    "link": "https://stanselmsteakhouse.com/",
    "happy_hour_time": "4pm to 7pm daily",
    "food_offered": {
      "cocktails": "$15",
      "wine": "$10",
      "bar snacks": "$10"
    },
    "address": "355 Metropolitan Ave, Brooklyn, NY 11211",
    "food_type": "American Steakhouse",
    "id": 18,
    "latitude": "40.71426675000000017234924598596990108489990234375",
    "longitude": "-73.956044929193154757740558125078678131103515625"
  },
  {
    "restaurant_name": "Casa Mono",
    "link": "https://casamononyc.com/",
    "happy_hour_time": "5pm to 7pm daily",
    "food_offered": {
      "tapas": "20% off",
      "wine by the glass": "$7",
      "ca\u00f1a beers": "$5"
    },
    "address": "51 Irving Pl, New York, NY 10003",
    "food_type": "Spanish Tapas",
    "id": 19,
    "latitude": "40.7360412000000025045665097422897815704345703125",
    "longitude": "-73.9874808000000001584339770488440990447998046875"
  },
  {
    "restaurant_name": "Estela",
    "link": "https://estelanyc.com/",
    "happy_hour_time": "5:30pm to 7pm daily",
    "food_offered": {
      "snacks": "$7-12",
      "glasses of wine": "$8",
      "draft beers": "$6"
    },
    "address": "47 E Houston St, New York, NY 10012",
    "food_type": "Modern American",
    "id": 20,
    "latitude": "40.72463460000000168292899616062641143798828125",
    "longitude": "-73.9947668939894214190644561313092708587646484375"
  },
  {
    "restaurant_name": "Prune",
    "link": "https://www.prunerestaurant.com/",
    "happy_hour_time": "5pm to 7pm daily",
    "food_offered": {
      "natural wines by the glass": "$8",
      "small plates": "$10-15",
      "oysters": "$1 each"
    },
    "address": "54 E 1st St, New York, NY 10003",
    "food_type": "Modern American",
    "id": 21,
    "latitude": "40.7238880999999963705704431049525737762451171875",
    "longitude": "-73.98938904653647341547184623777866363525390625"
  },
  {
    "restaurant_name": "The Wren",
    "link": "https://thewrennyc.com/",
    "happy_hour_time": "4pm to 6pm daily",
    "food_offered": {
      "deviled eggs": "$2",
      "wings": "$10",
      "burgers": "$12",
      "cocktails": "$7",
      "beers": "$6"
    },
    "address": "355 Metropolitan Ave, Brooklyn, NY 11211",
    "food_type": "American Gastropub",
    "id": 22,
    "latitude": "40.71426675000000017234924598596990108489990234375",
    "longitude": "-73.956044929193154757740558125078678131103515625"
  },
  {
    "restaurant_name": "Clover Hill",
    "link": "https://www.cloverhillbrooklyn.com/",
    "happy_hour_time": "5pm to 7pm daily",
    "food_offered": {
      "snacks": "$5-8",
      "glasses of wine": "$7",
      "draft beers": "$6"
    },
    "address": "201 Wythe Ave, Brooklyn, NY 11211",
    "food_type": "Modern American",
    "id": 23,
    "latitude": "40.71771199999999879537426750175654888153076171875",
    "longitude": "-73.9622370000000017853380995802581310272216796875"
  },
  {
    "restaurant_name": "Bar Goto",
    "link": "https://www.bargotonyc.com/",
    "happy_hour_time": "5pm to 7pm daily",
    "food_offered": {
      "yakitori skewers": "$2-$4 each",
      "small plates": "$8-12",
      "sake": "$6",
      "Japanese beers": "$7"
    },
    "address": "245 E 10th St, New York, NY 10003",
    "food_type": "Japanese",
    "id": 24,
    "latitude": "40.72876360000000062200342654250562191009521484375",
    "longitude": "-73.984140800000005810943548567593097686767578125"
  },
  {
    "restaurant_name": "Bar Agricole",
    "link": "https://www.baragricole.com/",
    "happy_hour_time": "5pm to 7pm daily",
    "food_offered": {
      "oysters": "$1 each",
      "cheese plates": "$12",
      "charcuterie plates": "$15",
      "natural wines by the glass": "$8"
    },
    "address": "135 E 12th St, New York, NY 10003",
    "food_type": "Wine Bar",
    "id": 25,
    "latitude": "40.73234649999999845704223844222724437713623046875",
    "longitude": "-73.988534604018610707498737610876560211181640625"
  },
  {
    "restaurant_name": "Dante",
    "link": "https://www.dantenyc.com/",
    "happy_hour_time": "5pm to 7pm daily",
    "food_offered": {
      "Italian snacks": "$8-12",
      "classic cocktails": "$10",
      "Italian wines by the glass": "$7"
    },
    "address": "79 Macdougal St, New York, NY 10012",
    "food_type": "Italian",
    "id": 26,
    "latitude": "40.72879089999999990823198459111154079437255859375",
    "longitude": "-74.0016623000000066667780629359185695648193359375"
  },
  {
    "restaurant_name": "The Commodore",
    "link": "https://www.thecommodorenewyork.com/",
    "happy_hour_time": "4pm to 7pm daily",
    "food_offered": {
      "sliders": "$6",
      "pretzels": "$8",
      "deviled eggs": "$4",
      "beers": "$6",
      "wine by the glass": "$7"
    },
    "address": "308 W 49th St, New York, NY 10019",
    "food_type": "American Gastropub",
    "id": 27,
    "latitude": "40.761803049999997483610059134662151336669921875",
    "longitude": "-73.987438099999991436561685986816883087158203125"
  },
  {
    "restaurant_name": "The Red Cat",
    "link": "https://www.theredcat.com/",
    "happy_hour_time": "5pm to 7pm daily",
    "food_offered": {
      "raw bar": "$1-$2 per oyster",
      "cheese plates": "$10",
      "small plates": "$8-12",
      "natural wines by the glass": "$8"
    },
    "address": "227 10th Ave, New York, NY 10011",
    "food_type": "American Bistro",
    "id": 28,
    "latitude": "40.7481166500000000496584107168018817901611328125",
    "longitude": "-74.00416841000009071649401448667049407958984375"
  },
  {
    "restaurant_name": "Bar Primi",
    "link": "https://www.barprimi.com/",
    "happy_hour_time": "5:30pm to 7pm daily",
    "food_offered": {
      "pasta dishes": "$12",
      "pizzas": "$15",
      "natural wines by the glass": "$8",
      "Italian beers": "$6"
    },
    "address": "325 Bowery, New York, NY 10003",
    "food_type": "Italian",
    "id": 29,
    "latitude": "40.72568410000000227455529966391623020172119140625",
    "longitude": "-73.99177409729639975921600125730037689208984375"
  },
  {
    "restaurant_name": "Cookshop",
    "link": "https://www.cookshopny.com/",
    "happy_hour_time": "4pm to 6pm daily",
    "food_offered": {
      "snacks": "$6-8",
      "glasses of wine": "$7",
      "draft beers": "$5"
    },
    "address": "156 10th Ave, New York, NY 10011",
    "food_type": "Modern American",
    "id": 30,
    "latitude": "40.7457174999999978126652422361075878143310546875",
    "longitude": "-74.0054588999999936049789539538323879241943359375"
  },
  {
    "restaurant_name": "The River Cafe",
    "link": "https://www.rivercafe.com/",
    "happy_hour_time": "5:30pm to 7pm daily",
    "food_offered": {
      "bar snacks": "$12-15",
      "glasses of wine": "$10",
      "cocktails": "$12"
    },
    "address": "1 Water St, Brooklyn, NY 11201",
    "food_type": "Modern American",
    "id": 31,
    "latitude": "40.70338100000000025602275854907929897308349609375",
    "longitude": "-73.992378999999999678038875572383403778076171875"
  },
  {
    "restaurant_name": "The Elk",
    "link": "https://www.theelknyc.com/",
    "happy_hour_time": "4pm to 7pm daily",
    "food_offered": {
      "burgers": "$10",
      "fries": "$5",
      "cocktails": "$7",
      "beers": "$6"
    },
    "address": "545 W 23rd St, New York, NY 10011",
    "food_type": "American Gastropub",
    "id": 32,
    "latitude": "40.7483465714285699732499779202044010162353515625",
    "longitude": "-74.005506285714290015675942413508892059326171875"
  },
  {
    "restaurant_name": "Little Italy Pizza & Pasta",
    "link": "https://www.littleitalynycpizza.com/",
    "happy_hour_time": "4pm to 7pm daily",
    "food_offered": {
      "pizzas": "$10-15",
      "pastas": "$12",
      "wine by the glass": "$5",
      "beers": "$4"
    },
    "address": "50 Spring St, New York, NY 10012",
    "food_type": "Italian",
    "id": 33,
    "latitude": "40.7219115500000015117620932869613170623779296875",
    "longitude": "-73.9965148851812273278483189642429351806640625"
  },
  {
    "restaurant_name": "The Brazen Head",
    "link": "https://brazenheadnyc.com/",
    "happy_hour_time": "4pm to 7pm daily",
    "food_offered": {
      "pub fare": "$8-12",
      "beers": "$5",
      "Irish whiskeys": "$7"
    },
    "address": "1039 Lexington Ave, New York, NY 10021",
    "food_type": "Irish Pub",
    "id": 34,
    "latitude": "40.77192099999999896908775554038584232330322265625",
    "longitude": "-73.96098809090909753649611957371234893798828125"
  },
  {
    "restaurant_name": "The Dead Rabbit Grocery & Grog",
    "link": "https://www.deadrabbitnyc.com/",
    "happy_hour_time": "5pm to 7pm daily",
    "food_offered": {
      "snacks": "$5-8",
      "oysters": "$1 each",
      "cocktails": "$7",
      "beers": "$6"
    },
    "address": "81 Fulton St, New York, NY 10038",
    "food_type": "American Gastropub",
    "id": 35,
    "latitude": "40.709110222222221864285529591143131256103515625",
    "longitude": "-74.0057432222222217887974693439900875091552734375"
  },
  {
    "restaurant_name": "Boqueria Midtown",
    "link": "https://www.boquerianyc.com/midtown/",
    "happy_hour_time": "4pm to 7pm daily",
    "food_offered": {
      "tapas": "20% off",
      "sangria": "$7",
      "glasses of wine": "$5"
    },
    "address": "21 E 52nd St, New York, NY 10022",
    "food_type": "Spanish",
    "id": 36,
    "latitude": "40.7593126000000012254531611688435077667236328125",
    "longitude": "-73.974888300000003482637112028896808624267578125"
  },
  {
    "restaurant_name": "Japas",
    "link": "https://www.japasnyc.com/",
    "happy_hour_time": "5:30pm to 7pm daily",
    "food_offered": {
      "dumplings": "$7",
      "small plates": "$12",
      "sushi rolls": "$10",
      "Japanese beers": "$6",
      "sake": "$7"
    },
    "address": "45 E 20th St, New York, NY 10003",
    "food_type": "Japanese",
    "id": 37,
    "latitude": "40.73893631707317553036773460917174816131591796875",
    "longitude": "-73.9889707317073117565087159164249897003173828125"
  },
  {
    "restaurant_name": "The Heights Bar & Grill",
    "link": "https://www.theheightsnyc.com/",
    "happy_hour_time": "5pm to 7pm daily",
    "food_offered": {
      "pretzels": "$8",
      "fries": "$5",
      "burgers": "$10",
      "cocktails": "$7",
      "beers": "$6"
    },
    "address": "2867 Broadway, New York, NY 10025",
    "food_type": "American",
    "id": 38,
    "latitude": "40.80516060000000067020664573647081851959228515625",
    "longitude": "-73.9663307000000003199602360837161540985107421875"
  },
  {
    "restaurant_name": "The Dead Rabbit",
    "link": "https://deadrabbitnyc.com/",
    "happy_hour_time": "5pm to 7pm daily",
    "food_offered": {
      "oysters": "$1 each",
      "deviled eggs": "$2 each",
      "other snacks": "$5-8 each"
    },
    "address": "30 Water St, New York, NY 10004",
    "food_type": "Irish Gastropub",
    "id": 39,
    "latitude": "40.70327555000000074869603849947452545166015625",
    "longitude": "-74.0110157472518466192923369817435741424560546875"
  },
  {
    "restaurant_name": "Bar Veloce",
    "link": "https://www.barveloce.com/",
    "happy_hour_time": "4pm to 7pm daily",
    "food_offered": {
      "cicchetti": "$5-8 each",
      "pizzas": "$15",
      "glasses of wine": "$7",
      "Italian beers": "$6"
    },
    "address": "175 2nd Ave, New York, NY 10011",
    "food_type": "Italian",
    "id": 40,
    "latitude": "40.73062660000000079207893577404320240020751953125",
    "longitude": "-73.9864467999999959602064336650073528289794921875"
  },
  {
    "restaurant_name": "The Dead Poet",
    "link": "https://www.thedeadpoetnyc.com/",
    "happy_hour_time": "5pm to 7pm daily",
    "food_offered": {
      "snacks": "$5-8",
      "glasses of wine": "$7",
      "draft beers": "$6"
    },
    "address": "501 Columbus Ave, New York, NY 10024",
    "food_type": "Modern American",
    "id": 41,
    "latitude": "40.7852043999999978041159920394420623779296875",
    "longitude": "-73.9728826999999995450707501731812953948974609375"
  },
  {
    "restaurant_name": "Llama San",
    "link": "https://llamasannyc.com/",
    "happy_hour_time": "5pm to 7pm daily",
    "food_offered": {
      "small plates": "$8-12",
      "cocktails": "$10",
      "beers": "$7"
    },
    "address": "116 E 16th St, New York, NY 10003",
    "food_type": "Peruvian",
    "id": 42,
    "latitude": "40.73542979999999857909642742015421390533447265625",
    "longitude": "-73.9884636000000028843714972026646137237548828125"
  },
  {
    "restaurant_name": "The Woof",
    "link": "https://woofnyc.com/",
    "happy_hour_time": "4pm to 7pm daily",
    "food_offered": {
      "sliders": "$6 each",
      "wings": "$10",
      "fries": "$5",
      "cocktails": "$7",
      "beers": "$6"
    },
    "address": "149 E 14th St, New York, NY 10003",
    "food_type": "American Gastropub",
    "id": 43,
    "latitude": "40.7338600780706912019013543613255023956298828125",
    "longitude": "-73.98830410162418047548271715641021728515625"
  },
  {
    "restaurant_name": "Black Fox Coffee",
    "link": "https://www.blackfoxcoffee.com/",
    "happy_hour_time": "3pm to 5pm daily",
    "food_offered": {
      "coffee drinks": "$3 off",
      "pastries": "$2 each",
      "sandwiches": "$5 each"
    },
    "address": "182 2nd Ave, New York, NY 10011",
    "food_type": "Cafe",
    "id": 44,
    "latitude": "40.7306077500000043301042751409113407135009765625",
    "longitude": "-73.985851560778456814659875817596912384033203125"
  },
  {
    "restaurant_name": "Miss Lily's 7A",
    "link": "https://misslilys7a.com/",
    "happy_hour_time": "4pm to 7pm daily",
    "food_offered": {
      "jerk wings": "$10",
      "plantain fries": "$8",
      "cocktails": "$12",
      "rum punch": "$8"
    },
    "address": "109 E 7th St, New York, NY 10009",
    "food_type": "Caribbean",
    "id": 45,
    "latitude": "40.72677772727272582642399356700479984283447265625",
    "longitude": "-73.9850312727272694246494211256504058837890625"
  },
  {
    "restaurant_name": "Bar Blondeau",
    "link": "https://barblondeau.com/",
    "happy_hour_time": "5pm to 7pm daily",
    "food_offered": {
      "oysters": "$1 each",
      "deviled eggs": "$2 each",
      "snacks": "$5-8 each",
      "glasses of wine": "$7",
      "beers": "$6"
    },
    "address": "311 W Broadway, New York, NY 10013",
    "food_type": "French Wine Bar",
    "id": 46,
    "latitude": "40.7217447999999961893990985117852687835693359375",
    "longitude": "-74.0039985887261053676411393098533153533935546875"
  },
  {
    "restaurant_name": "Superiority Burger",
    "link": "https://www.superiorityburger.com/",
    "happy_hour_time": "4pm to 6pm daily",
    "food_offered": {
      "vegan burgers": "$8-12",
      "fries": "$5",
      "shakes": "$7",
      "beers": "$6"
    },
    "address": "125 E 10th St, New York, NY 10003",
    "food_type": "Vegan",
    "id": 47,
    "latitude": "40.73034774999999996225596987642347812652587890625",
    "longitude": "-73.987723215098327500527375377714633941650390625"
  },
  {
    "restaurant_name": "The Blind Pig",
    "link": "https://www.theblindpignyc.com/",
    "happy_hour_time": "4pm to 7pm daily",
    "food_offered": {
      "bar snacks": "$5-8 each",
      "classic cocktails": "$10",
      "glasses of wine": "$7"
    },
    "address": "230 E 4th St, New York, NY 10009",
    "food_type": "Cocktail Bar",
    "id": 48,
    "latitude": "40.723376349999995227335602976381778717041015625",
    "longitude": "-73.98329049929560596865485422313213348388671875"
  },
  {
    "restaurant_name": "La Esquina",
    "link": "https://www.laesquinanyc.com/",
    "happy_hour_time": "5pm to 7pm daily",
    "food_offered": {
      "tapas": "$8-12 each",
      "tequila cocktails": "$10",
      "mexclas": "$7"
    },
    "address": "114 1st Ave, New York, NY 10003",
    "food_type": "Mexican",
    "id": 49,
    "latitude": "40.72673544999999961646608426235616207122802734375",
    "longitude": "-73.985583019174697483322233892977237701416015625"
  },
  {
    "restaurant_name": "Clover Club",
    "link": "https://www.cloverclubnyc.com/",
    "happy_hour_time": "5pm to 7pm daily",
    "food_offered": {
      "snacks": "$8-12",
      "classic cocktails": "$10",
      "glasses of wine": "$7"
    },
    "address": "575 Hudson St, New York, NY 10014",
    "food_type": "Cocktail Bar",
    "id": 50,
    "latitude": "40.7361182000000070502210292033851146697998046875",
    "longitude": "-74.006201702064487335519515909254550933837890625"
  },
  {
    "restaurant_name": "Banh Mi Ngon",
    "link": "https://www.banhmi-ngon.com/",
    "happy_hour_time": "3pm to 5pm daily",
    "food_offered": {
      "banh mi sandwiches": "$5-8",
      "spring rolls": "$3 each",
      "Vietnamese coffees": "$4-5"
    },
    "address": "78 1st Ave, New York, NY 10003",
    "food_type": "Vietnamese",
    "id": 51,
    "latitude": "40.7250549999999975625541992485523223876953125",
    "longitude": "-73.9870370000000008303686627186834812164306640625"
  },
  {
    "restaurant_name": "Trafi",
    "link": "https://www.trafinyc.com/",
    "happy_hour_time": "4pm to 7pm daily",
    "food_offered": {
      "mezcal cocktails": "$12",
      "tequila cocktails": "$10",
      "guacamole and chips": "$8",
      "tacos": "$3 each"
    },
    "address": "19 E 2nd St, New York, NY 10003",
    "food_type": "Mexican",
    "id": 52,
    "latitude": "40.725312000000002399247023276984691619873046875",
    "longitude": "-73.9914919999999938227119855582714080810546875"
  }
]